[
    {
      "id": 3916,
      "name": "مرکزی",
      "latitude": 34.612305,
      "longitude": 49.8547266
    },
    {
      "id": 3917,
      "name": "خوزستان",
      "latitude": 31.4360149,
      "longitude": 49.041312
    },
    {
      "id": 3918,
      "name": "ایلام",
      "latitude": 33.2957618,
      "longitude": 46.670534
    },
    {
      "id": 3919,
      "name": "کرمانشاه",
      "latitude": 34.4576233,
      "longitude": 46.670534
    },
    {
      "id": 3920,
      "name": "گیلان",
      "latitude": 37.2809455,
      "longitude": 49.5924134
    },
    {
      "id": 3921,
      "name": "چهارمحال و بختیاری",
      "latitude": 31.9970419,
      "longitude": 50.6613849
    },
    {
      "id": 3922,
      "name": "قم",
      "latitude": 34.6415764,
      "longitude": 50.8746035
    },
    {
      "id": 3923,
      "name": "اصفهان",
      "latitude": 33.2771073,
      "longitude": 52.3613378
    },
    {
      "id": 3924,
      "name": "آذربایجان غربی",
      "latitude": 37.4550062,
      "longitude": 45.0
    },
    {
      "id": 3925,
      "name": "زنجان",
      "latitude": 36.5018185,
      "longitude": 48.3988186
    },
    {
      "id": 3926,
      "name": "کهگیلویه و بویراحمد",
      "latitude": 30.724586,
      "longitude": 50.8456323
    },
    {
      "id": 3927,
      "name": "خراسان رضوی",
      "latitude": 35.1020253,
      "longitude": 59.1041758
    },
    {
      "id": 3928,
      "name": "لرستان",
      "latitude": 33.5818394,
      "longitude": 48.3988186
    },
    {
      "id": 3929,
      "name": "البرز",
      "latitude": 35.9960467,
      "longitude": 50.9289246
    },
    {
      "id": 3930,
      "name": "خراسان جنوبی",
      "latitude": 32.5175643,
      "longitude": 59.1041758
    },
    {
      "id": 3931,
      "name": "سیستان و بلوچستان",
      "latitude": 27.5299906,
      "longitude": 60.5820676
    },
    {
      "id": 3932,
      "name": "بوشهر",
      "latitude": 28.7620739,
      "longitude": 51.5150077
    },
    {
      "id": 3933,
      "name": "گلستان",
      "latitude": 37.2898123,
      "longitude": 55.1375834
    },
    {
      "id": 3934,
      "name": "اردبیل",
      "latitude": 38.4853276,
      "longitude": 47.8911209
    },
    {
      "id": 3935,
      "name": "کردستان",
      "latitude": 35.9553579,
      "longitude": 47.1362125
    },
    {
      "id": 3936,
      "name": "یزد",
      "latitude": 32.1006387,
      "longitude": 54.4342138
    },
    {
      "id": 3937,
      "name": "هرمزگان",
      "latitude": 27.138723,
      "longitude": 55.1375834
    },
    {
      "id": 3938,
      "name": "مازندران",
      "latitude": 36.2262393,
      "longitude": 52.5318604
    },
    {
      "id": 3939,
      "name": "فارس",
      "latitude": 29.1043813,
      "longitude": 53.045893
    },
    {
      "id": 3940,
      "name": "سمنان",
      "latitude": 35.2255585,
      "longitude": 54.4342138
    },
    {
      "id": 3941,
      "name": "قزوین",
      "latitude": 36.0881317,
      "longitude": 49.8547266
    },
    {
      "id": 3942,
      "name": "خراسان شمالی",
      "latitude": 37.4710353,
      "longitude": 57.1013188
    },
    {
      "id": 3943,
      "name": "کرمان",
      "latitude": 29.4850089,
      "longitude": 57.6439048
    },
    {
      "id": 3944,
      "name": "آذربایجان شرقی",
      "latitude": 37.9035733,
      "longitude": 46.2682109
    },
    {
      "id": 3945,
      "name": "تهران",
      "latitude": 35.7248416,
      "longitude": 51.381653
    },
    {
      "id": 4920,
      "name": "همدان",
      "latitude": 34.91936070,
      "longitude": 47.48329250
    }
]
